[[],[{"lat_lng":"{lat: 23.8694688, lng: 91.2934129}","lat":" 23.8694688","lng":"91.2934129","cityName":" Agartala","dr_name":" Dr. Rajat Kanti Bhattacharjee"}],[{"lat_lng":"{lat: 13.0129258, lng: 80.2203307}","lat":" 13.0129258","lng":"80.2203307","cityName":" chola chennai","dr_name":" Dr. Shobhana Ramachandran"}],[{"lat_lng":"{lat: 11.0168445, lng: 76.9558321}","lat":" 11.0168445","lng":"76.9558321","cityName":" coimbatore","dr_name":" Dr. Senthil Kumar Kailasam"}],[{"lat_lng":"{lat: 19.4532059, lng: 72.8096808}","lat":" 19.4532059","lng":"72.8096808","cityName":" Dist Palghar","dr_name":" Dr. Vinit Kumar Chandrashekhar Dandawate"}],[{"lat_lng":"{lat: 22.8440921, lng: 86.2125267}","lat":" 22.8440921","lng":"86.2125267","cityName":" Jamshedpur","dr_name":" Dr. Vinoy Kumar Sinha"}],[{"lat_lng":"{lat: 9.938192, lng: 78.094311}","lat":" 9.938192","lng":"78.094311","cityName":" MADHURAI","dr_name":" Dr. Rajkumar R."}],[{"lat_lng":"{lat: 16.7459661, lng: 77.9869853}","lat":" 16.7459661","lng":"77.9869853","cityName":" Mahaboobnagar (Dist.)","dr_name":" Dr. Ramesh Babu B."}],[{"lat_lng":"{lat: 30.697186, lng: 76.867474}","lat":" 30.697186","lng":"76.867474","cityName":" Panchkula","dr_name":" Dr. Anand Kumar Ghildyal"}],[{"lat_lng":"{lat: 21.2476485, lng: 81.6203244}","lat":" 21.2476485","lng":"81.6203244","cityName":" Raipur","dr_name":" Dr. T.R. Rathore"}],[{"lat_lng":"{lat: 11.1151827, lng: 77.3621017}","lat":" 11.1151827","lng":"77.3621017","cityName":" uhukuli road,TIRUPUR","dr_name":" Dr. Sakthivelan Shanmugam"}],[{"lat_lng":"{lat: 12.973712, lng: 80.194104}","lat":" 12.973712","lng":"80.194104","cityName":"Acharapakkam","dr_name":" Dr. Srinivasan T.R."}],[{"lat_lng":"{lat: 19.6665314, lng: 78.5064247}","lat":" 19.6665314","lng":"78.5064247","cityName":"Adilabad","dr_name":" Dr. Satyanarayana Gaudi "}],[{"lat_lng":"{lat: 15.8746013, lng: 78.5795936}","lat":" 15.8746013","lng":"78.5795936","cityName":"Adoni","dr_name":" Dr. Chandra Sekhar A."},{"lat_lng":"{lat: 15.6306963, lng: 77.2852467}","lat":" 15.6306963","lng":"77.2852467","cityName":"Adoni","dr_name":" Dr. Chandra Sekhar A."},{"lat_lng":"{lat: 15.6190481, lng: 77.2821787}","lat":" 15.6190481","lng":"77.2821787","cityName":"Adoni","dr_name":" Dr. Chandra Sekhar A."},{"lat_lng":"{lat: 15.622295, lng: 77.2815952}","lat":" 15.622295","lng":"77.2815952","cityName":"Adoni","dr_name":" Dr. Chandra Sekhar A."},{"lat_lng":"{lat: 15.6318824, lng: 77.2758833}","lat":" 15.6318824","lng":"77.2758833","cityName":"Adoni","dr_name":" Dr. Chandra Sekhar A."},{"lat_lng":"{lat: 15.6255754, lng: 77.2761473}","lat":" 15.6255754","lng":"77.2761473","cityName":"Adoni","dr_name":" Dr. Chandra Sekhar A."},{"lat_lng":"{lat: 15.6225247, lng: 77.2816607}","lat":" 15.6225247","lng":"77.2816607","cityName":"Adoni","dr_name":" Dr. Chandra Sekhar A."}],[{"lat_lng":"{lat: 17.2025612, lng: 76.3577624}","lat":" 17.2025612","lng":"76.3577624","cityName":"Afzalpur","dr_name":" Dr. Gurushanth L.B."}],[{"lat_lng":"{lat: 23.8373656, lng: 91.2703387}","lat":" 23.8373656","lng":"91.2703387","cityName":"Agartala","dr_name":" Dr. P.K. Bhattacharya"},{"lat_lng":"{lat: 23.8299116, lng: 91.2795622}","lat":" 23.8299116","lng":"91.2795622","cityName":"Agartala","dr_name":" Dr. P.K. Bhattacharya"},{"lat_lng":"{lat: 23.8325591, lng: 91.2953197}","lat":" 23.8325591","lng":"91.2953197","cityName":"Agartala","dr_name":" Dr. P.K. Bhattacharya"},{"lat_lng":"{lat: 23.835625, lng: 91.2661884}","lat":" 23.835625","lng":"91.2661884","cityName":"Agartala","dr_name":" Dr. P.K. Bhattacharya"},{"lat_lng":"{lat: 23.8363536, lng: 91.2665914}","lat":" 23.8363536","lng":"91.2665914","cityName":"Agartala","dr_name":" Dr. P.K. Bhattacharya"},{"lat_lng":"{lat: 23.834116, lng: 91.277123}","lat":" 23.834116","lng":"91.277123","cityName":"Agartala","dr_name":" Dr. P.K. Bhattacharya"},{"lat_lng":"{lat: 23.8635079, lng: 91.2903074}","lat":" 23.8635079","lng":"91.2903074","cityName":"Agartala","dr_name":" Dr. P.K. Bhattacharya"},{"lat_lng":"{lat: 23.8379465, lng: 91.2747109}","lat":" 23.8379465","lng":"91.2747109","cityName":"Agartala","dr_name":" Dr. P.K. Bhattacharya"},{"lat_lng":"{lat: 23.8446306, lng: 91.2764834}","lat":" 23.8446306","lng":"91.2764834","cityName":"Agartala","dr_name":" Dr. P.K. Bhattacharya"}],[{"lat_lng":"{lat: 27.2227645, lng: 78.0092411}","lat":" 27.2227645","lng":"78.0092411","cityName":"Agra","dr_name":" Prof. Daya Kishore Hazra"},{"lat_lng":"{lat: 27.186672, lng: 77.9845715}","lat":" 27.186672","lng":"77.9845715","cityName":"Agra","dr_name":" Prof. Daya Kishore Hazra"},{"lat_lng":"{lat: 27.2030304, lng: 78.0016734}","lat":" 27.2030304","lng":"78.0016734","cityName":"Agra","dr_name":" Prof. Daya Kishore Hazra"},{"lat_lng":"{lat: 27.1871873, lng: 77.9841196}","lat":" 27.1871873","lng":"77.9841196","cityName":"Agra","dr_name":" Prof. Daya Kishore Hazra"},{"lat_lng":"{lat: 27.1830734, lng: 77.9822294}","lat":" 27.1830734","lng":"77.9822294","cityName":"Agra","dr_name":" Prof. Daya Kishore Hazra"},{"lat_lng":"{lat: 27.2041735, lng: 78.0190961}","lat":" 27.2041735","lng":"78.0190961","cityName":"Agra","dr_name":" Prof. Daya Kishore Hazra"},{"lat_lng":"{lat: 27.2001738, lng: 78.0002362}","lat":" 27.2001738","lng":"78.0002362","cityName":"Agra","dr_name":" Prof. Daya Kishore Hazra"},{"lat_lng":"{lat: 27.1648065, lng: 78.0151114}","lat":" 27.1648065","lng":"78.0151114","cityName":"Agra","dr_name":" Prof. Daya Kishore Hazra"},{"lat_lng":"{lat: 27.1706406, lng: 78.0104576}","lat":" 27.1706406","lng":"78.0104576","cityName":"Agra","dr_name":" Prof. Daya Kishore Hazra"},{"lat_lng":"{lat: 27.20735, lng: 77.9940174}","lat":" 27.20735","lng":"77.9940174","cityName":"Agra","dr_name":" Prof. Daya Kishore Hazra"},{"lat_lng":"{lat: 27.1813664, lng: 78.0089872}","lat":" 27.1813664","lng":"78.0089872","cityName":"Agra","dr_name":" Prof. Daya Kishore Hazra"},{"lat_lng":"{lat: 27.1996101, lng: 78.0196763}","lat":" 27.1996101","lng":"78.0196763","cityName":"Agra","dr_name":" Prof. Daya Kishore Hazra"},{"lat_lng":"{lat: 27.2251305, lng: 78.0024134}","lat":" 27.2251305","lng":"78.0024134","cityName":"Agra","dr_name":" Prof. Daya Kishore Hazra"},{"lat_lng":"{lat: 27.2033522, lng: 78.022477}","lat":" 27.2033522","lng":"78.022477","cityName":"Agra","dr_name":" Prof. Daya Kishore Hazra"},{"lat_lng":"{lat: 27.2125701, lng: 78.0058017}","lat":" 27.2125701","lng":"78.0058017","cityName":"Agra","dr_name":" Prof. Daya Kishore Hazra"},{"lat_lng":"{lat: 27.2156144, lng: 78.0217894}","lat":" 27.2156144","lng":"78.0217894","cityName":"Agra","dr_name":" Prof. Daya Kishore Hazra"},{"lat_lng":"{lat: 27.1553102, lng: 78.0404569}","lat":" 27.1553102","lng":"78.0404569","cityName":"Agra","dr_name":" Prof. Daya Kishore Hazra"},{"lat_lng":"{lat: 27.2246568, lng: 78.0168299}","lat":" 27.2246568","lng":"78.0168299","cityName":"Agra","dr_name":" Prof. Daya Kishore Hazra"},{"lat_lng":"{lat: 27.1818913, lng: 77.9818957}","lat":" 27.1818913","lng":"77.9818957","cityName":"Agra","dr_name":" Prof. Daya Kishore Hazra"},{"lat_lng":"{lat: 27.186157, lng: 77.980282}","lat":" 27.186157","lng":"77.980282","cityName":"Agra","dr_name":" Prof. Daya Kishore Hazra"},{"lat_lng":"{lat: 27.1986755, lng: 77.9560184}","lat":" 27.1986755","lng":"77.9560184","cityName":"Agra","dr_name":" Prof. Daya Kishore Hazra"},{"lat_lng":"{lat: 27.1867313, lng: 77.9657063}","lat":" 27.1867313","lng":"77.9657063","cityName":"Agra","dr_name":" Prof. Daya Kishore Hazra"},{"lat_lng":"{lat: 26.393833, lng: 80.3211929}","lat":" 26.393833","lng":"80.3211929","cityName":"Agra","dr_name":" Prof. Daya Kishore Hazra"},{"lat_lng":"{lat: 27.1935502, lng: 78.0103976}","lat":" 27.1935502","lng":"78.0103976","cityName":"Agra","dr_name":" Prof. Daya Kishore Hazra"},{"lat_lng":"{lat: 27.2083403, lng: 78.0068559}","lat":" 27.2083403","lng":"78.0068559","cityName":"Agra","dr_name":" Prof. Daya Kishore Hazra"},{"lat_lng":"{lat: 27.1884335, lng: 77.9756495}","lat":" 27.1884335","lng":"77.9756495","cityName":"Agra","dr_name":" Prof. Daya Kishore Hazra"},{"lat_lng":"{lat: 27.2023844, lng: 78.0197858}","lat":" 27.2023844","lng":"78.0197858","cityName":"Agra","dr_name":" Prof. Daya Kishore Hazra"},{"lat_lng":"{lat: 27.2121652, lng: 78.0177743}","lat":" 27.2121652","lng":"78.0177743","cityName":"Agra","dr_name":" Prof. Daya Kishore Hazra"},{"lat_lng":"{lat: 27.1607472, lng: 78.0385206}","lat":" 27.1607472","lng":"78.0385206","cityName":"Agra","dr_name":" Prof. Daya Kishore Hazra"},{"lat_lng":"{lat: 27.1820466, lng: 77.9972901}","lat":" 27.1820466","lng":"77.9972901","cityName":"Agra","dr_name":" Prof. Daya Kishore Hazra"},{"lat_lng":"{lat: 27.203284, lng: 78.043839}","lat":" 27.203284","lng":"78.043839","cityName":"Agra","dr_name":" Prof. Daya Kishore Hazra"},{"lat_lng":"{lat: 27.2041735, lng: 78.0190961}","lat":" 27.2041735","lng":"78.0190961","cityName":"Agra","dr_name":" Prof. Daya Kishore Hazra"},{"lat_lng":"{lat: 27.169885, lng: 78.007621}","lat":" 27.169885","lng":"78.007621","cityName":"Agra","dr_name":" Prof. Daya Kishore Hazra"},{"lat_lng":"{lat: 27.1444311, lng: 78.0445597}","lat":" 27.1444311","lng":"78.0445597","cityName":"Agra","dr_name":" Prof. Daya Kishore Hazra"},{"lat_lng":"{lat: 27.2136836, lng: 78.0229841}","lat":" 27.2136836","lng":"78.0229841","cityName":"Agra","dr_name":" Prof. Daya Kishore Hazra"},{"lat_lng":"{lat: 27.1663027, lng: 78.0373146}","lat":" 27.1663027","lng":"78.0373146","cityName":"Agra","dr_name":" Prof. Daya Kishore Hazra"},{"lat_lng":"{lat: 27.1791861, lng: 77.9817166}","lat":" 27.1791861","lng":"77.9817166","cityName":"Agra","dr_name":" Prof. Daya Kishore Hazra"},{"lat_lng":"{lat: 27.2089365, lng: 78.0225681}","lat":" 27.2089365","lng":"78.0225681","cityName":"Agra","dr_name":" Prof. Daya Kishore Hazra"},{"lat_lng":"{lat: 27.2148962, lng: 77.9782149}","lat":" 27.2148962","lng":"77.9782149","cityName":"Agra","dr_name":" Prof. Daya Kishore Hazra"},{"lat_lng":"{lat: 27.2017032, lng: 77.9948455}","lat":" 27.2017032","lng":"77.9948455","cityName":"Agra","dr_name":" Prof. Daya Kishore Hazra"},{"lat_lng":"{lat: 27.1817713, lng: 77.9740683}","lat":" 27.1817713","lng":"77.9740683","cityName":"Agra","dr_name":" Prof. Daya Kishore Hazra"},{"lat_lng":"{lat: 27.1796346, lng: 77.995277}","lat":" 27.1796346","lng":"77.995277","cityName":"Agra","dr_name":" Prof. Daya Kishore Hazra"},{"lat_lng":"{lat: 27.1986569, lng: 78.0059814}","lat":" 27.1986569","lng":"78.0059814","cityName":"Agra","dr_name":" Prof. Daya Kishore Hazra"},{"lat_lng":"{lat: 27.2100217, lng: 78.0193623}","lat":" 27.2100217","lng":"78.0193623","cityName":"Agra","dr_name":" Prof. Daya Kishore Hazra"},{"lat_lng":"{lat: 27.2074695, lng: 78.0266873}","lat":" 27.2074695","lng":"78.0266873","cityName":"Agra","dr_name":" Prof. Daya Kishore Hazra"},{"lat_lng":"{lat: 27.1986569, lng: 78.0059814}","lat":" 27.1986569","lng":"78.0059814","cityName":"Agra","dr_name":" Prof. Daya Kishore Hazra"},{"lat_lng":"{lat: 27.2168812, lng: 78.0184925}","lat":" 27.2168812","lng":"78.0184925","cityName":"Agra","dr_name":" Prof. Daya Kishore Hazra"},{"lat_lng":"{lat: 27.2237986, lng: 78.0289958}","lat":" 27.2237986","lng":"78.0289958","cityName":"Agra","dr_name":" Prof. Daya Kishore Hazra"},{"lat_lng":"{lat: 27.1906664, lng: 78.0097016}","lat":" 27.1906664","lng":"78.0097016","cityName":"Agra","dr_name":" Prof. Daya Kishore Hazra"},{"lat_lng":"{lat: 27.210362, lng: 78.0256}","lat":" 27.210362","lng":"78.0256","cityName":"Agra","dr_name":" Prof. Daya Kishore Hazra"},{"lat_lng":"{lat: 27.1811282, lng: 77.9818003}","lat":" 27.1811282","lng":"77.9818003","cityName":"Agra","dr_name":" Prof. Daya Kishore Hazra"},{"lat_lng":"{lat: 27.178859, lng: 77.979936}","lat":" 27.178859","lng":"77.979936","cityName":"Agra","dr_name":" Prof. Daya Kishore Hazra"},{"lat_lng":"{lat: 27.1854675, lng: 78.0213113}","lat":" 27.1854675","lng":"78.0213113","cityName":"Agra","dr_name":" Prof. Daya Kishore Hazra"},{"lat_lng":"{lat: 27.1845227, lng: 77.9806459}","lat":" 27.1845227","lng":"77.9806459","cityName":"Agra","dr_name":" Prof. Daya Kishore Hazra"},{"lat_lng":"{lat: 27.2011565, lng: 77.959588}","lat":" 27.2011565","lng":"77.959588","cityName":"Agra","dr_name":" Prof. Daya Kishore Hazra"},{"lat_lng":"{lat: 27.1569152, lng: 78.0356527}","lat":" 27.1569152","lng":"78.0356527","cityName":"Agra","dr_name":" Prof. Daya Kishore Hazra"},{"lat_lng":"{lat: 27.1990526, lng: 78.0058476}","lat":" 27.1990526","lng":"78.0058476","cityName":"Agra","dr_name":" Prof. Daya Kishore Hazra"}],[{"lat_lng":"{lat: 27.1696109, lng: 77.9805709}","lat":" 27.1696109","lng":"77.9805709","cityName":"Agra Cantt","dr_name":" Dr. Praveen Kumar Garg"}],[{"lat_lng":"{lat: 23.0381554, lng: 72.5137004}","lat":" 23.0381554","lng":"72.5137004","cityName":"Ahmedabad","dr_name":" Prof. O.P. Gupta"},{"lat_lng":"{lat: 23.0513072, lng: 72.5382329}","lat":" 23.0513072","lng":"72.5382329","cityName":"Ahmedabad","dr_name":" Prof. Bharat B. Trivedi"},{"lat_lng":"{lat: 23.0508317, lng: 72.498878}","lat":" 23.0508317","lng":"72.498878","cityName":"Ahmedabad","dr_name":" Dr. Navneet Shah"},{"lat_lng":"{lat: 23.014789, lng: 72.5473403}","lat":" 23.014789","lng":"72.5473403","cityName":"Ahmedabad","dr_name":" Dr. Anil J. Jaiswal"},{"lat_lng":"{lat: 23.015314, lng: 72.504381}","lat":" 23.015314","lng":"72.504381","cityName":"Ahmedabad","dr_name":" Dr. Nitin Sumant Shah"},{"lat_lng":"{lat: 23.0501706, lng: 72.54359}","lat":" 23.0501706","lng":"72.54359","cityName":"Ahmedabad","dr_name":" Dr. Mayur R. Patel"},{"lat_lng":"{lat: 23.0112243, lng: 72.5555389}","lat":" 23.0112243","lng":"72.5555389","cityName":"Ahmedabad","dr_name":" Dr. Premal B. Thakor"},{"lat_lng":"{lat: 23.0031556, lng: 72.597092}","lat":" 23.0031556","lng":"72.597092","cityName":"Ahmedabad","dr_name":" Dr. Ashok M. Parekh"},{"lat_lng":"{lat: 23.0198924, lng: 72.568681}","lat":" 23.0198924","lng":"72.568681","cityName":"Ahmedabad","dr_name":" Prof. Hasmukh C. Mehta"},{"lat_lng":"{lat: 23.0124865, lng: 72.5969113}","lat":" 23.0124865","lng":"72.5969113","cityName":"Ahmedabad","dr_name":" Dr. Urman Dhruv"},{"lat_lng":"{lat: 23.0557083, lng: 72.5250616}","lat":" 23.0557083","lng":"72.5250616","cityName":"Ahmedabad","dr_name":" Dr. V.N. Shah"},{"lat_lng":"{lat: 23.0605782, lng: 72.5582758}","lat":" 23.0605782","lng":"72.5582758","cityName":"Ahmedabad","dr_name":" Dr. P.S. Iyengar"},{"lat_lng":"{lat: 23.0673016, lng: 72.6428194}","lat":" 23.0673016","lng":"72.6428194","cityName":"Ahmedabad","dr_name":" Dr. Sunil A. Wadhwani"},{"lat_lng":"{lat: 23.0130291, lng: 72.5177338}","lat":" 23.0130291","lng":"72.5177338","cityName":"Ahmedabad","dr_name":" Dr. Sanjeev R. Phatak"},{"lat_lng":"{lat: 23.0069713, lng: 72.565735}","lat":" 23.0069713","lng":"72.565735","cityName":"Ahmedabad","dr_name":" Dr. Manoj Vithalani"},{"lat_lng":"{lat: 23.0240324, lng: 72.5716761}","lat":" 23.0240324","lng":"72.5716761","cityName":"Ahmedabad","dr_name":" Prof. R.M. Shah"},{"lat_lng":"{lat: 23.0407529, lng: 72.5514208}","lat":" 23.0407529","lng":"72.5514208","cityName":"Ahmedabad","dr_name":" Dr. Bharat C. Kaji"},{"lat_lng":"{lat: 23.1028258, lng: 72.5728056}","lat":" 23.1028258","lng":"72.5728056","cityName":"Ahmedabad","dr_name":" Dr. Trimadhu C. Sharma"},{"lat_lng":"{lat: 23.0206435, lng: 72.5122537}","lat":" 23.0206435","lng":"72.5122537","cityName":"Ahmedabad","dr_name":" Dr. Bipin K. Amin"},{"lat_lng":"{lat: 23.0837121, lng: 72.5903991}","lat":" 23.0837121","lng":"72.5903991","cityName":"Ahmedabad","dr_name":" Dr. Gian R. Badlani"},{"lat_lng":"{lat: 23.0135569, lng: 72.5556049}","lat":" 23.0135569","lng":"72.5556049","cityName":"Ahmedabad","dr_name":" Dr. Sunil P. Mehta"},{"lat_lng":"{lat: 23.0592472, lng: 72.5916002}","lat":" 23.0592472","lng":"72.5916002","cityName":"Ahmedabad","dr_name":" Dr. Himmat Singh Soni"},{"lat_lng":"{lat: 23.0189998, lng: 72.6198761}","lat":" 23.0189998","lng":"72.6198761","cityName":"Ahmedabad","dr_name":" Dr. Tiven Ramlal Marwah"},{"lat_lng":"{lat: 23.023994, lng: 72.542668}","lat":" 23.023994","lng":"72.542668","cityName":"Ahmedabad","dr_name":" Dr. Banshi Saboo"},{"lat_lng":"{lat: 23.0395843, lng: 72.5659327}","lat":" 23.0395843","lng":"72.5659327","cityName":"Ahmedabad","dr_name":" Dr. Lakshmi Shriram S."},{"lat_lng":"{lat: 23.0199829, lng: 72.5611039}","lat":" 23.0199829","lng":"72.5611039","cityName":"Ahmedabad","dr_name":" Dr. Mahadev T. Desai"},{"lat_lng":"{lat: 23.0191305, lng: 72.526103}","lat":" 23.0191305","lng":"72.526103","cityName":"Ahmedabad","dr_name":" Dr. Jayesh J. Sheth"},{"lat_lng":"{lat: 23.0197458, lng: 72.504313}","lat":" 23.0197458","lng":"72.504313","cityName":"Ahmedabad","dr_name":" Dr. Vivek Arya"},{"lat_lng":"{lat: 23.0264234, lng: 72.5113936}","lat":" 23.0264234","lng":"72.5113936","cityName":"Ahmedabad","dr_name":" Dr. S.M. Patnaik"},{"lat_lng":"{lat: 23.0283792, lng: 72.5343068}","lat":" 23.0283792","lng":"72.5343068","cityName":"Ahmedabad","dr_name":" Dr. Mukul K. Oza"},{"lat_lng":"{lat: 23.0109112, lng: 72.5386122}","lat":" 23.0109112","lng":"72.5386122","cityName":"Ahmedabad","dr_name":" Dr. Praveen Kumar Garg"},{"lat_lng":"{lat: 23.029744, lng: 72.532375}","lat":" 23.029744","lng":"72.532375","cityName":"Ahmedabad","dr_name":" Dr. Nishith Harshad Joshi"},{"lat_lng":"{lat: 23.0589915, lng: 72.6006097}","lat":" 23.0589915","lng":"72.6006097","cityName":"Ahmedabad","dr_name":" Dr. K.D. Tibrewala"},{"lat_lng":"{lat: 23.0286312, lng: 72.5966363}","lat":" 23.0286312","lng":"72.5966363","cityName":"Ahmedabad","dr_name":" Dr. Raisahmed Md Iqbal Patel "},{"lat_lng":"{lat: 23.0553613, lng: 72.6030123}","lat":" 23.0553613","lng":"72.6030123","cityName":"Ahmedabad","dr_name":" Dr. Navin D. Khimesra"},{"lat_lng":"{lat: 23.0678851, lng: 72.5616679}","lat":" 23.0678851","lng":"72.5616679","cityName":"Ahmedabad","dr_name":" Dr. Mahendrakumar B. Patel"},{"lat_lng":"{lat: 23.022505, lng: 72.5713621}","lat":" 23.022505","lng":"72.5713621","cityName":"Ahmedabad","dr_name":" Dr. Rajesh Singh Karan"},{"lat_lng":"{lat: 22.999544, lng: 72.6079361}","lat":" 22.999544","lng":"72.6079361","cityName":"Ahmedabad","dr_name":" Dr. Jayesh Natvarlal Thakkar"},{"lat_lng":"{lat: 23.0074811, lng: 72.5912572}","lat":" 23.0074811","lng":"72.5912572","cityName":"Ahmedabad","dr_name":" Dr. Milind Laxmanrao Prakashkar"},{"lat_lng":"{lat: 23.048525, lng: 72.5701274}","lat":" 23.048525","lng":"72.5701274","cityName":"Ahmedabad","dr_name":" Dr. Bharat M. Shah"},{"lat_lng":"{lat: 23.021131, lng: 72.540124}","lat":" 23.021131","lng":"72.540124","cityName":"Ahmedabad","dr_name":" Dr. Viral I. Khammar"},{"lat_lng":"{lat: 23.0472186, lng: 72.5143821}","lat":" 23.0472186","lng":"72.5143821","cityName":"Ahmedabad","dr_name":" Dr. Ambrish K. Srivastava"},{"lat_lng":"{lat: 23.004199, lng: 72.590459}","lat":" 23.004199","lng":"72.590459","cityName":"Ahmedabad","dr_name":" Dr. Kirit Dalpatram Akhani"},{"lat_lng":"{lat: 22.9893403, lng: 72.5121494}","lat":" 22.9893403","lng":"72.5121494","cityName":"Ahmedabad","dr_name":" Dr. Mohammedakil Usmangani"},{"lat_lng":"{lat: 22.991394, lng: 72.611713}","lat":" 22.991394","lng":"72.611713","cityName":"Ahmedabad","dr_name":" Dr. Vipul Rajanikant Patadia"},{"lat_lng":"{lat: 23.015132, lng: 72.563847}","lat":" 23.015132","lng":"72.563847","cityName":"Ahmedabad","dr_name":" Dr. Nalin Gheewala"},{"lat_lng":"{lat: 23.0173376, lng: 72.5304139}","lat":" 23.0173376","lng":"72.5304139","cityName":"Ahmedabad","dr_name":" Dr. Manish Agrawal"}]]